City_ID,City,Lat,Lng,Max Temp,Humidity,Cloudiness,Wind Speed,Country,Date
0,adamstown,-25.066,-130.1015,72.68,66,1,23.17,PN,1713545665
1,iqaluit,63.7506,-68.5145,13.5,75,98,7.72,CA,1713545668
2,talnakh,69.4865,88.3972,20.21,97,100,7.49,RU,1713545585
3,grytviken,-54.2811,-36.5092,43.56,99,97,3.96,GS,1713545673
4,saudarkrokur,65.7461,-19.6394,35.06,77,100,16.49,IS,1713545675
5,keflavik,64.0049,-22.5624,39.63,93,100,31.07,IS,1713545678
6,waitangi,-43.9535,-176.5597,56.82,96,100,10.94,NZ,1713545114
7,ribeira grande,38.5167,-28.7,66.78,82,40,13.8,PT,1713545683
8,skopin,53.8249,39.5505,46.09,70,30,21.99,RU,1713545686
9,fortuna,40.5982,-124.1573,60.98,74,0,0.0,US,1713545688
10,niquero,20.0431,-77.5828,87.4,41,1,12.41,CU,1713545691
11,yeed,4.55,43.0333,86.09,59,52,12.24,SO,1713545694
12,west island,-12.1568,96.8225,82.38,69,40,18.41,CC,1713545696
13,nouadhibou,20.931,-17.0347,66.96,81,100,28.12,MR,1713545699
14,susuman,62.7833,148.1667,6.98,99,72,4.0,RU,1713545567
15,avarua,-21.2078,-159.775,78.85,83,20,3.44,CK,1713545704
16,watsa,3.0372,29.5355,70.68,83,100,4.5,CD,1713545707
17,kuta,-8.7233,115.1723,84.15,88,20,9.22,ID,1713545709
18,edinburgh of the seven seas,-37.0676,-12.3116,58.48,72,84,31.65,SH,1713545712
19,utrik,11.2278,169.8474,80.82,81,2,21.7,MH,1713545715
20,tyukalinsk,55.8732,72.1967,44.89,82,98,8.28,RU,1713545717
21,sisimiut,66.9395,-53.6735,25.83,74,18,8.39,GL,1713545720
22,ushuaia,-54.8,-68.3,38.86,81,100,20.71,AR,1713545723
23,nemuro,43.3236,145.575,36.55,92,100,29.53,JP,1713545725
24,georgetown,5.4112,100.3354,85.95,74,20,2.3,MY,1713545472
25,qaqortoq,60.7167,-46.0333,30.79,94,81,3.42,GL,1713545731
26,puerto santa,-8.9906,-78.6456,71.47,77,78,9.89,PE,1713545734
27,port-aux-francais,-49.35,70.2167,38.39,63,26,30.22,TF,1713545737
28,blackmans bay,-43.0167,147.3167,46.53,89,97,1.01,AU,1713545739
29,port augusta,-32.5,137.7667,55.0,70,0,8.72,AU,1713545742
30,hermanus,-34.4187,19.2345,65.57,81,25,0.92,ZA,1713545679
31,puerto ayora,-0.7393,-90.3518,77.56,96,81,1.99,EC,1713545747
32,margaret river,-33.95,115.0667,62.49,48,90,6.76,AU,1713545750
33,sinabang,2.4803,96.3801,80.46,87,100,11.5,ID,1713545752
34,east london,-33.0153,27.9116,70.74,94,75,8.05,ZA,1713545679
35,dawei,14.0833,98.2,78.04,86,4,1.5,MM,1713545758
36,kerikeri,-35.2268,173.9474,60.4,97,100,5.61,NZ,1713545760
37,saipan,15.1355,145.701,81.3,83,40,6.91,MP,1713545763
38,ghat,24.9647,10.1728,94.33,6,0,14.45,LY,1713545765
39,santo antonio do ica,-3.1022,-67.9397,81.82,77,100,3.76,BR,1713545768
40,chopinzinho,-25.8558,-52.5233,76.15,34,33,1.86,BR,1713545520
41,chiredzi,-21.05,31.6667,77.0,43,7,7.36,ZW,1713545774
42,belozersk,60.0326,37.7957,34.99,62,100,5.01,RU,1713545776
43,papatowai,-46.5619,169.4708,45.34,89,91,5.64,NZ,1713545779
44,hawaiian paradise park,19.5933,-154.9731,69.31,96,100,3.44,US,1713545782
45,sur,22.5667,59.5289,81.1,61,3,3.38,OM,1713545784
46,enewetak,11.3474,162.3373,81.28,83,50,17.54,MH,1713545787
47,tibanbang,6.6315,126.1055,80.28,76,75,2.95,PH,1713545790
48,xichang,27.8964,102.2634,59.86,89,100,1.25,CN,1713545792
49,port lincoln,-34.7333,135.8667,56.7,76,5,12.24,AU,1713545795
50,newman,37.3138,-121.0208,68.23,70,84,3.0,US,1713545798
51,miskolc,48.1,20.7833,50.18,58,77,5.73,HU,1713545801
52,antsiranana,-12.2787,49.2917,79.2,79,23,12.21,MG,1713545803
53,visakhapatnam,17.69,83.2093,85.89,94,40,9.22,IN,1713545806
54,tokar,18.4254,37.729,84.81,45,0,7.47,SD,1713545809
55,puerto natales,-51.7236,-72.4875,43.25,81,75,26.46,CL,1713545811
56,alofi,-19.0595,-169.9187,75.09,94,98,5.75,NU,1713545814
57,chabahar,25.2919,60.643,78.4,71,0,10.56,IR,1713545816
58,san pablo jocopilas,14.5833,-91.45,93.74,47,50,8.57,GT,1713545821
59,cabedelo,-6.9811,-34.8339,92.07,71,99,10.58,BR,1713545532
60,kuanda,56.3161,116.0806,25.12,86,100,2.35,RU,1713545826
61,flin flon,54.7682,-101.865,24.94,69,31,12.71,CA,1713545831
62,antofagasta,-23.65,-70.4,72.68,71,24,7.0,CL,1713545833
63,levuka,50.1834,-105.4011,44.42,80,100,17.27,CA,1713545837
64,hengchun,22.0042,120.7439,78.1,80,2,6.15,TW,1713545840
65,yamada,39.4667,141.95,46.09,79,4,7.38,JP,1713545842
66,jamestown,42.097,-79.2353,62.19,88,100,14.97,US,1713545845
67,itamaraca,-7.7478,-34.8256,87.85,68,100,9.42,BR,1713545848
68,hadibu,12.65,54.0333,83.26,80,86,9.33,YE,1713545850
69,lufilufi,-13.8745,-171.5986,76.78,78,92,15.59,WS,1713545853
70,vilyuchinsk,52.9306,158.4028,36.25,95,95,2.21,RU,1713545855
71,albany,42.6001,-73.9662,57.74,60,100,7.0,US,1713545858
72,chita,52.0333,113.55,24.69,63,99,2.24,RU,1713545861
73,namibe,-15.1961,12.1522,77.13,78,67,9.98,AO,1713545863
74,invercargill,-46.4,168.35,47.01,95,83,3.0,NZ,1713545866
75,mogocha,53.7333,119.7667,25.18,96,98,0.31,RU,1713545868
76,nuuk,64.1835,-51.7216,25.88,92,100,11.01,GL,1713545871
77,priladozhskiy,59.85,31.4833,27.54,1,100,12.59,RU,1713545874
78,ulladulla,-35.35,150.4667,58.77,82,95,17.56,AU,1713545878
79,khorramabad,33.4878,48.3558,65.82,39,20,4.61,IR,1713545880
80,bredasdorp,-34.5322,20.0403,63.19,89,14,5.64,ZA,1713545883
81,atafu village,-8.5421,-172.5159,85.24,75,64,14.65,TK,1713545886
82,tam ky,15.5667,108.4833,77.31,86,23,2.93,VN,1713545888
83,whitehorse,60.7161,-135.0538,35.22,84,81,6.22,CA,1713545891
84,shuangcheng,45.35,126.2833,40.68,29,91,8.37,CN,1713545894
85,arraial do cabo,-22.9661,-42.0278,76.96,69,75,13.8,BR,1713545844
86,posadas,-27.3671,-55.8961,78.28,38,0,11.5,AR,1713545714
87,wenchang,30.904,118.4887,62.06,94,100,10.85,CN,1713545902
88,tavsanli,39.5424,29.4987,58.17,52,99,2.84,TR,1713545905
89,al bawiti,28.3492,28.8659,77.83,24,0,9.53,EG,1713545907
90,thompson,55.7435,-97.8558,22.87,77,100,13.22,CA,1713545616
91,cockburn town,21.4612,-71.1419,80.56,57,40,17.27,TC,1713545868
92,praia da vitoria,38.7333,-27.0667,70.05,64,20,11.97,PT,1713545915
93,fale old settlement,-9.3852,-171.2468,85.71,73,78,15.93,TK,1713545918
94,aasiaat,68.7098,-52.8699,20.43,80,62,8.25,GL,1713545920
95,vorgashor,67.5833,63.95,-7.76,91,71,8.28,RU,1713545923
96,vadso,70.0744,29.7487,24.96,54,0,16.11,NO,1713545925
97,bilibino,68.0546,166.4372,7.61,97,100,5.99,RU,1713545931
98,kuraymah,18.55,31.85,95.99,9,3,8.23,SD,1713545933
99,aykhal,66.0,111.5,27.12,90,100,10.13,RU,1713545936
100,olonkinbyen,70.9221,-8.7187,23.18,54,2,17.6,SJ,1713545939
101,nar'yan-mar,67.6713,53.087,2.1,93,23,8.99,RU,1713545942
102,yellowknife,62.456,-114.3525,35.42,71,100,4.0,CA,1713545944
103,bechar,31.6167,-2.2167,84.52,14,40,19.57,DZ,1713545948
104,saint-joseph,-21.3667,55.6167,75.58,80,86,11.5,RE,1713545950
105,cabo san lucas,22.8909,-109.9124,90.61,19,0,12.66,MX,1713545868
106,yuanping,38.7153,112.7575,48.9,62,100,2.91,CN,1713545956
107,port mathurin,-19.6833,63.4167,79.29,73,100,23.13,MU,1713545959
108,port elizabeth,-33.918,25.5701,68.31,87,0,9.22,ZA,1713545961
109,alva,56.1528,-3.8051,53.04,53,90,9.55,GB,1713545964
110,wewak,-3.5534,143.6268,80.53,86,92,4.85,PG,1713545966
111,khandyga,62.6667,135.6,19.96,85,71,4.68,RU,1713545969
112,freeport,40.6576,-73.5832,58.98,71,75,14.97,US,1713545661
113,sitka,57.0531,-135.33,55.29,35,0,8.05,US,1713545974
114,bochum,51.4833,7.2167,49.5,85,83,8.01,DE,1713545977
115,richards bay,-28.783,32.0377,70.02,87,2,1.43,ZA,1713545980
116,greymouth,-42.4667,171.2,46.44,90,99,5.77,NZ,1713545983
117,coari,-4.085,-63.1414,88.0,62,96,3.31,BR,1713545985
118,ust-nera,64.5667,143.2,5.59,96,21,3.49,RU,1713545988
119,paciran,-6.8767,112.3761,80.73,87,100,7.38,ID,1713545991
120,badger,64.8,-147.5333,39.97,65,0,0.0,US,1713545993
121,emerald,-23.5333,148.1667,69.35,55,91,12.75,AU,1713545996
122,tazovsky,67.4667,78.7,0.72,93,100,19.08,RU,1713545998
123,iskateley,67.6803,53.1512,2.01,93,22,8.99,RU,1713546001
124,glace bay,46.1969,-59.957,45.27,75,69,10.0,CA,1713546004
125,egilsstadir,65.2653,-14.3948,33.71,69,40,19.57,IS,1713546008
126,luau,-10.7073,22.2247,73.0,74,100,3.42,AO,1713546011
127,znamenskoye,57.1281,73.8282,37.4,82,70,5.14,RU,1713546014
128,chibougamau,49.9168,-74.3659,39.9,97,100,10.54,CA,1713546016
129,holualoa,19.6228,-155.9522,74.88,77,7,1.88,US,1713546019
130,punta arenas,-53.15,-70.9167,44.71,67,75,16.11,CL,1713546022
131,udachny,66.4167,112.4,31.44,89,100,12.21,RU,1713546025
132,quitilipi,-26.8691,-60.2168,81.93,32,0,10.27,AR,1713546028
133,vernon,50.2581,-119.2691,52.23,34,76,4.61,CA,1713546030
134,stanley,54.868,-1.6985,45.99,60,20,19.57,GB,1713546033
135,tiksi,71.6872,128.8694,11.97,95,78,4.36,RU,1713546036
136,daru,-9.0763,143.2092,80.06,89,100,7.81,PG,1713546039
137,mount isa,-20.7333,139.5,69.57,28,80,19.57,AU,1713546041
138,bethel,41.3712,-73.414,58.55,61,100,8.05,US,1713545888
139,sterling,39.0062,-77.4286,55.38,87,100,9.22,US,1713545839
140,tomatlan,19.9333,-105.25,89.85,28,0,7.31,MX,1713546050
141,klyuchi,52.2667,79.1667,50.11,59,82,7.85,RU,1713546052
142,kendari,-3.945,122.4989,76.77,95,100,2.26,ID,1713546055
143,buka,40.8108,69.1986,67.39,53,93,4.81,UZ,1713546058
144,qamdo,31.1667,97.2333,37.85,72,92,2.91,CN,1713546061
145,berezovyy,51.6667,135.7,32.47,98,100,5.12,RU,1713546072
146,hamilton,39.1834,-84.5333,59.25,78,100,8.05,US,1713545943
147,shache,38.4167,77.2406,64.54,37,100,16.4,CN,1713546078
148,flying fish cove,-10.4217,105.6791,80.28,89,100,9.22,CX,1713545875
149,ilulissat,69.2167,-51.1,23.02,74,75,4.61,GL,1713546087
150,mount pearl,47.5166,-52.7813,38.84,91,100,14.0,CA,1713546089
151,kani keli,-12.9536,45.1033,83.46,74,99,7.92,YT,1713546092
152,dryden,49.7833,-92.7503,33.64,75,100,11.63,CA,1713546094
153,san mateo del mar,16.2,-95.0,81.73,76,67,7.11,MX,1713546097
154,isafjordur,66.0755,-23.124,32.04,59,0,4.61,IS,1713546100
155,melfort,52.8667,-104.6177,24.37,76,67,12.77,CA,1713546102
156,xilin hot,43.9667,116.0333,42.04,77,100,5.08,CN,1713545840
157,san patricio,28.017,-97.5169,87.66,57,49,7.38,US,1713546107
158,kashin,57.3592,37.6081,45.93,73,27,19.93,RU,1713546110
159,st. john's,47.5649,-52.7093,39.67,92,99,25.99,CA,1713545994
160,tocopilla,-22.092,-70.1979,71.8,66,2,2.39,CL,1713546115
161,le port,-20.9373,55.2919,77.0,76,87,5.57,RE,1713546118
162,jayapura,-2.5333,140.7,76.39,93,98,2.66,ID,1713546121
163,colonia,50.9333,6.95,50.97,73,40,18.41,DE,1713546007
164,elamanchili,17.55,82.8667,86.22,83,81,7.38,IN,1713546126
165,aur,8.1499,171.1687,82.44,82,26,21.9,MH,1713546129
166,pitkyaranta,61.5734,31.4792,26.51,92,100,18.28,RU,1713546131
167,qarazhal,48.0078,70.7903,65.26,54,0,13.4,KZ,1713546137
168,ola,59.5833,151.2833,26.15,79,12,10.58,RU,1713546139
169,afaahiti,-17.75,-149.2833,76.87,78,76,18.81,PF,1713546142
170,kristiansund,63.1115,7.732,44.65,56,0,8.05,NO,1713546145
171,gamba,-2.65,10.0,78.84,85,100,9.69,GA,1713546148
172,horta,38.5333,-28.6333,65.01,81,40,13.8,PT,1713546151
173,miri,4.4148,114.0089,80.74,94,40,0.0,MY,1713546156
174,hammerfest,70.6634,23.6821,30.65,47,0,11.5,NO,1713546159
175,san pedro pochutla,15.7333,-96.4667,92.19,43,11,7.56,MX,1713546164
176,cotonou,6.3654,2.4183,89.58,74,40,11.5,BJ,1713546167
177,huarmey,-10.0681,-78.1522,74.43,73,99,9.42,PE,1713546170
178,dunedin,-45.8742,170.5036,46.8,99,100,4.68,NZ,1713546154
179,burao,9.5221,45.5336,82.45,50,100,9.35,SO,1713546175
180,ardestan,33.3761,52.3694,71.73,28,95,7.9,IR,1713546178
181,tolanaro,-25.0319,46.9987,75.27,73,75,18.41,MG,1713546181
182,koluszki,51.7387,19.8199,49.75,100,100,10.54,PL,1713545990
183,bandarbeyla,9.4942,50.8122,84.52,77,22,11.18,SO,1713546186
184,nova sintra,14.8667,-24.7167,76.93,76,16,22.66,CV,1713546189
185,miyako,39.6367,141.9525,48.15,75,9,8.43,JP,1713546192
186,juan griego,11.0817,-63.9655,88.34,60,100,7.92,VE,1713546195
187,naze,28.3667,129.4833,68.92,75,80,9.82,JP,1713546199
188,grand-lahou,5.1367,-5.0242,86.65,72,86,7.85,CI,1713546163
189,staraya russa,57.9944,31.3608,30.97,95,100,12.88,RU,1713546204
190,harstad,68.799,16.5293,39.15,57,20,18.01,NO,1713546208
191,mount airy,36.4993,-80.6073,70.95,70,75,3.44,US,1713546131
192,tateyama,34.9833,139.8667,61.68,63,55,1.39,JP,1713546213
193,kone,-21.0595,164.8658,73.72,95,99,4.29,NC,1713546216
194,belyy yar,53.6039,91.3903,48.09,46,0,11.18,RU,1713546218
195,letlhakane,-21.4167,25.5833,77.99,29,0,5.77,BW,1713546221
196,fujin,47.26,132.0322,38.8,82,51,6.62,CN,1713546223
197,gadzhiyevo,69.2551,33.3362,13.24,83,6,9.57,RU,1713546229
198,luderitz,-26.6481,15.1594,64.04,77,7,7.25,NA,1713546232
199,crane,31.3974,-102.3501,57.92,59,100,16.35,US,1713546234
200,tofol,5.3248,163.0078,83.16,80,99,18.57,FM,1713546237
201,junin de los andes,-39.9504,-71.0694,51.75,61,46,23.13,AR,1713546240
202,chonchi,-42.6128,-73.8092,57.11,69,71,6.29,CL,1713546165
203,toliara,-23.35,43.6667,76.26,84,51,5.82,MG,1713546245
204,puerto deseado,-47.7503,-65.8938,56.84,44,8,20.47,AR,1713546147
205,gannan,47.9147,123.5031,40.24,49,62,7.05,CN,1713546250
206,wotho,10.1657,166.0102,81.19,83,94,20.74,MH,1713546253
207,sassnitz,54.5167,13.65,40.39,95,100,18.99,DE,1713546256
208,usinsk,65.9939,57.5281,9.07,86,57,11.99,RU,1713546021
209,nova vicosa,-17.8919,-39.3719,79.14,79,99,18.48,BR,1713546107
210,mkushi,-13.6202,29.3939,66.07,84,88,3.65,ZM,1713546264
211,kapuskasing,49.4169,-82.4331,45.19,52,95,11.97,CA,1713546266
212,al qadarif,14.0349,35.3834,96.84,7,4,11.01,SD,1713546270
213,okha,53.5739,142.9478,32.25,91,89,8.99,RU,1713546272
214,mendi,-6.1761,143.6513,56.05,98,97,2.93,PG,1713546276
215,dudinka,69.4058,86.1778,20.68,96,100,5.99,RU,1713546279
216,shahi,28.55,79.3167,88.34,25,33,13.73,IN,1713546282
217,kialla,-36.4161,145.3954,48.65,85,0,7.05,AU,1713546285
218,port hedland,-20.3167,118.5667,78.85,24,92,10.36,AU,1713546288
219,paulden,34.8856,-112.4682,74.73,26,40,1.99,US,1713546290
220,kayangel,8.0823,134.7173,81.88,83,94,19.22,PW,1713546293
221,hithadhoo,-0.6,73.0833,84.15,74,100,7.99,MV,1713546296
222,onguday,50.75,86.15,47.7,96,100,0.89,RU,1713546299
223,tabas,33.5959,56.9244,76.05,18,0,6.4,IR,1713546302
224,klaksvik,62.2266,-6.589,40.12,57,91,12.3,FO,1713546305
225,kangding,30.0513,101.9603,47.89,99,100,5.73,CN,1713546308
226,dalandzadgad,43.5708,104.425,48.2,49,2,8.08,MN,1713546310
227,anadyr,64.75,177.4833,1.9,77,0,5.99,RU,1713546316
228,cururupu,-1.8283,-44.8683,77.5,95,100,3.29,BR,1713546319
229,antonio enes,-16.2325,39.9086,79.72,80,78,8.1,MZ,1713546168
230,akureyri,65.6835,-18.0878,31.93,64,0,3.44,IS,1713546324
231,hilo,19.7297,-155.09,69.53,92,100,4.61,US,1713546327
232,puerto armuelles,8.2833,-82.8667,93.18,67,100,1.01,PA,1713546330
233,hastings,50.8552,0.5729,55.53,73,99,17.78,GB,1713546000
234,codrington,-38.2667,141.9667,52.34,77,35,6.06,AU,1713546338
235,kidal,18.4411,1.4078,103.01,4,6,2.82,ML,1713546340
236,hobyo,5.3505,48.5268,85.95,72,85,14.07,SO,1713546343
237,pointe aux piments,-20.0628,57.5131,78.53,77,86,18.21,MU,1713546346
238,saldanha,-33.0117,17.9442,59.05,96,69,6.8,ZA,1713546348
239,tadine,-21.55,167.8833,75.38,90,100,9.55,NC,1713546351
240,sandnessjoen,66.0217,12.6316,42.91,22,0,6.91,NO,1713546354
241,kununurra,-15.7667,128.7333,73.38,64,6,4.61,AU,1713546356
242,murzuq,25.9155,13.9184,86.18,11,0,3.85,LY,1713546359
243,la mira,18.035,-102.3266,84.34,45,0,8.08,MX,1713546363
244,balabac,7.9868,117.0645,81.88,79,77,7.18,PH,1713546365
245,ponta delgada,37.7333,-25.6667,65.19,82,20,16.11,PT,1713546368
246,byalynichy,53.9983,29.7126,37.81,90,80,7.4,BY,1713546374
247,mankono,8.0586,-6.1897,100.69,26,40,9.06,CI,1713546376
248,pamandzi,-12.7967,45.2794,83.98,74,0,6.91,YT,1713546379
249,san jose acatempa,14.2653,-90.1269,81.99,42,57,6.06,GT,1713546382
250,hasaki,35.7333,140.8333,55.8,53,4,10.42,JP,1713546384
251,mournies,35.4764,24.0092,63.82,77,75,6.91,GR,1713546387
252,quiindy,-25.9667,-57.2667,79.45,41,0,7.45,PY,1713546390
253,camacupa,-12.0167,17.4833,70.66,63,48,1.97,AO,1713546260
254,ongjin,37.9347,125.3619,55.58,72,100,4.47,KP,1713546395
255,andergrove,-21.0833,149.1833,74.23,84,97,5.44,AU,1713546397
256,ballina,-28.8667,153.5667,58.78,89,12,10.45,AU,1713546400
257,ar rutbah,33.0381,40.2848,79.29,23,2,9.22,IQ,1713546405
258,alaghsas,17.0187,8.0168,104.18,7,18,6.35,NE,1713546408
259,burang,30.25,81.1667,31.19,75,50,7.58,CN,1713546410
260,ammon,43.4696,-111.9666,47.98,37,0,13.8,US,1713546413
261,kudahuvadhoo,2.6708,72.8944,85.89,75,33,12.95,MV,1713546416
262,hami,42.8,93.45,64.56,24,16,4.7,CN,1713546418
263,kingston,17.997,-76.7936,87.17,66,20,8.05,JM,1713546330
264,mongomo,1.6274,11.3135,75.94,79,100,4.34,GQ,1713546424
265,polyarnyy,69.1989,33.4478,12.45,84,6,8.52,RU,1713546427
266,cape town,-33.9258,18.4232,63.12,79,0,4.61,ZA,1713546339
267,ocher,57.8904,54.7202,60.12,65,99,9.01,RU,1713546432
268,queenstown,-31.8976,26.8753,67.1,47,9,4.5,ZA,1713546434
269,petropavlovsk-kamchatsky,53.0452,158.6483,34.77,95,75,4.47,RU,1713546139
270,gaoping,30.7758,106.1029,69.08,78,95,1.43,CN,1713546440
271,otawara,36.8667,140.0333,52.18,62,43,5.84,JP,1713546443
272,tarfaya,27.9358,-12.9218,67.46,79,100,13.0,MA,1713546445
273,isla vista,34.4133,-119.861,55.76,88,100,4.61,US,1713546448
274,kapa'a,22.0752,-159.319,71.92,83,100,18.41,US,1713546451
275,port saint john's,-31.6229,29.5448,71.31,90,78,5.3,ZA,1713546453
276,carutapera,-1.195,-46.02,75.43,98,100,2.35,BR,1713546459
277,ust'-kut,56.7938,105.7672,26.44,52,48,5.01,RU,1713546462
278,darende,38.5458,37.5058,66.6,46,4,8.16,TR,1713546467
279,punta cardon,11.6581,-70.215,84.49,71,100,16.08,VE,1713546469
280,najaf,31.9985,44.3398,93.13,13,9,6.53,IQ,1713546472
281,bikenibeu village,1.3673,173.1241,82.36,78,75,9.22,KI,1713546475
282,embi,48.8264,58.1442,69.76,42,56,7.92,KZ,1713546374
283,krasnyy chikoy,50.3643,108.7512,31.86,86,22,1.5,RU,1713546480
284,howrah,22.5892,88.3103,89.6,70,20,13.8,IN,1713546483
285,wailua homesteads,22.0669,-159.378,70.59,83,100,18.41,US,1713546485
286,tabou,4.423,-7.3528,86.22,73,33,8.97,CI,1713546488
287,plastun,44.7561,136.2939,37.33,95,97,2.19,RU,1713546491
288,chadron,42.8294,-102.9999,42.48,34,100,13.8,US,1713546493
289,corcova,44.7,23.05,49.73,58,51,6.24,RO,1713546496
290,tegina,10.0706,6.1906,103.41,21,84,6.11,NG,1713546499
291,borovichi,58.3878,33.9155,34.02,98,100,13.0,RU,1713546394
292,tvoroyri,61.5556,-6.8111,39.43,52,81,5.99,FO,1713546504
293,inari,68.906,27.0288,28.96,83,99,6.96,FI,1713546507
294,thurso,58.5927,-3.5259,43.05,63,98,19.93,GB,1713546509
295,arar,30.9753,41.0381,86.02,14,0,4.61,SA,1713546512
296,ciudad constitucion,25.0369,-111.6644,77.5,31,88,9.01,MX,1713546515
297,longyearbyen,78.2186,15.6401,28.24,64,75,20.71,SJ,1713546518
298,taltal,-25.4,-70.4833,67.28,74,18,3.96,CL,1713546520
299,college,64.8569,-147.8028,40.06,58,0,0.0,US,1713546523
300,alpena,45.0617,-83.4327,50.32,49,75,13.8,US,1713546519
301,uaua,-9.8414,-39.4817,92.26,37,58,12.35,BR,1713546446
302,kentville,45.0835,-64.4988,52.97,44,100,2.51,CA,1713546531
303,gisborne,-38.6533,178.0042,60.01,72,100,3.29,NZ,1713546533
304,kurumkan,54.3,110.3,35.13,46,10,4.0,RU,1713546536
305,happy valley-goose bay,53.3168,-60.3315,48.45,32,83,1.66,CA,1713546539
306,palmer,42.1584,-72.3287,60.84,40,70,3.0,US,1713546541
307,rabo de peixe,37.8,-25.5833,63.99,99,20,16.11,PT,1713546544
308,san jose del guaviare,2.5729,-72.6459,80.19,78,100,3.4,CO,1713546547
309,carnarvon,-24.8667,113.6333,76.55,45,27,12.86,AU,1713546549
310,lovington,32.944,-103.3485,54.45,62,100,1.99,US,1713546553
311,varna,43.2167,27.9167,51.94,76,20,11.5,BG,1713546442
312,saint-pierre,-21.3393,55.4781,76.68,78,20,13.8,RE,1713546558
313,likasi,-10.9814,26.7333,65.37,91,100,2.37,CD,1713546561
314,ketchikan,55.3422,-131.6461,52.27,50,0,0.0,US,1713546564
315,karratha,-20.7377,116.8463,80.94,26,99,10.54,AU,1713546566
316,contai,21.7786,87.7536,83.03,85,0,18.9,IN,1713546569
317,zvornik,44.3869,19.1014,54.25,57,49,2.55,BA,1713546572
318,vanimo,-2.6741,141.3028,79.74,90,99,2.86,PG,1713546576
319,sodra sandby,56.5667,16.6167,37.89,82,91,14.2,SE,1713546578
320,kuqa,41.7278,82.9364,65.1,34,5,3.49,CN,1713546581
321,coquimbo,-29.9533,-71.3436,63.63,76,38,7.14,CL,1713546466
322,benguela,-12.5763,13.4055,83.64,79,98,5.7,AO,1713546587
323,nizhneudinsk,54.9076,99.0276,41.56,82,87,8.7,RU,1713546589
324,beloyarskiy,63.7119,66.6722,18.0,89,96,5.01,RU,1713546592
325,ballymena,54.8636,-6.2763,54.01,71,17,12.17,GB,1713546594
326,mutuali,-14.8706,37.0044,70.23,94,86,3.71,MZ,1713546597
327,kodiak,57.79,-152.4072,40.51,93,100,20.71,US,1713546599
328,rio grande,-32.035,-52.0986,82.51,61,44,4.54,BR,1713546605
329,grand falls-windsor,48.9332,-55.6649,38.5,76,69,8.01,CA,1713546608
330,el tigre,8.8875,-64.2454,86.94,56,100,8.1,VE,1713546610
331,berdigestyakh,62.0989,126.6992,28.36,95,100,5.61,RU,1713546613
332,kalispell,48.1958,-114.3129,41.18,35,0,10.36,US,1713546616
333,raja,8.4596,25.678,93.79,23,85,5.59,SS,1713546618
334,prado,-17.3411,-39.2208,75.45,91,100,11.05,BR,1713546400
335,quellon,-43.1167,-73.6167,50.65,73,86,10.31,CL,1713546623
336,kampene,-3.6,26.6667,72.93,96,100,2.66,CD,1713546626
337,tual,-5.6667,132.75,82.89,78,100,1.77,ID,1713546629
338,saynshand,44.8824,110.1163,46.18,20,12,13.4,MN,1713546632
339,motygino,58.1831,94.7592,36.79,97,100,5.99,RU,1713546635
340,green valley,31.8543,-110.9937,83.79,16,15,10.13,US,1713546601
341,rudnichnyy,59.617,52.4703,48.78,95,89,5.64,RU,1713546640
342,candolim,15.5181,73.7626,82.4,78,27,3.67,IN,1713546601
343,tura,25.5198,90.2201,79.29,35,0,4.38,IN,1713546646
344,ust'-ilimsk,58.0006,102.6619,36.45,93,100,5.01,RU,1713546649
345,port alfred,-33.5906,26.891,69.19,90,30,1.01,ZA,1713546652
346,borogontsy,62.6683,131.1683,24.46,97,100,3.62,RU,1713546655
347,porto novo,6.4965,2.6036,86.74,71,77,11.01,BJ,1713546658
348,uturoa,-16.7333,-151.4333,82.89,77,65,15.73,PF,1713546660
349,ta`u,-14.2336,-169.5144,84.16,76,89,11.77,AS,1713546663
350,lihue,21.9789,-159.3672,71.19,77,100,18.41,US,1713546666
351,vieux fort,13.7167,-60.95,87.15,74,40,16.11,LC,1713546668
352,tidjikja,18.5564,-11.4271,100.56,4,10,4.85,MR,1713546673
353,bom jesus,-9.0744,-44.3586,90.36,51,65,5.32,BR,1713546679
354,geraldton,-28.7667,114.6,59.41,72,0,10.36,AU,1713546681
355,grottaminarda,41.0697,15.0589,54.91,75,57,6.6,IT,1713546684
356,champerico,14.3,-91.9167,87.49,59,50,12.75,GT,1713546687
357,pisco,-13.7,-76.2167,71.02,88,100,8.05,PE,1713546690
358,taroa,8.7058,171.2275,82.22,83,50,21.81,MH,1713546692
359,howard springs,-12.497,131.047,80.51,81,43,6.8,AU,1713546695
360,pucheng,27.9233,118.5333,66.52,99,100,2.17,CN,1713546698
361,vrangel',42.7297,133.0839,40.53,92,31,4.59,RU,1713546631
362,constantia,44.1833,28.65,50.68,74,25,8.1,RO,1713546704
363,bodo,67.28,14.405,40.77,36,0,13.8,NO,1713546706
364,khasab,26.1799,56.2477,76.37,52,0,5.66,OM,1713546709
365,tari,12.4086,4.4914,108.14,9,5,5.59,NG,1713546712
366,zhanaozen,43.3,52.8,75.92,24,0,11.07,KZ,1713546714
367,magadan,59.5667,150.8,25.54,78,17,8.63,RU,1713546675
368,tindouf,27.6711,-8.1474,87.67,11,100,22.1,DZ,1713546720
369,santiago de cao,-7.9589,-79.2392,71.73,73,98,10.36,PE,1713546722
370,patterson,37.4716,-121.1297,67.23,68,73,4.74,US,1713546403
371,bratsk,56.1325,101.6142,48.69,92,100,6.06,RU,1713546657
372,cadale,2.7603,46.3222,86.25,73,81,16.51,SO,1713546730
373,dhuusamarreeb,5.535,46.3861,89.96,51,93,5.01,SO,1713546733
374,namsos,64.4662,11.4957,44.65,42,0,10.36,NO,1713546736
375,kazerun,29.6195,51.6541,69.64,47,0,2.93,IR,1713546738
376,tondano,1.3038,124.9112,69.89,97,71,1.63,ID,1713546741
377,ilheus,-14.7889,-39.0494,84.52,61,56,8.14,BR,1713546744
378,amahai,-3.3333,128.9167,78.75,87,62,3.31,ID,1713546747
379,pangody,65.85,74.4859,-3.35,95,8,10.96,RU,1713546750
380,dolores,-36.3132,-57.6792,73.22,58,82,16.78,AR,1713546753
381,karatuzskoye,53.6072,92.8667,47.37,60,54,15.99,RU,1713546759
382,kerrville,30.0474,-99.1403,71.94,64,100,10.36,US,1713546549
383,burela de cabo,43.65,-7.4,52.11,69,0,11.18,ES,1713546764
384,orchard homes,46.8633,-114.0484,43.59,33,0,12.66,US,1713546767
385,kavali,14.9167,79.9833,83.89,78,95,7.78,IN,1713546769
386,kongolo,-5.3833,27.0,75.45,89,100,3.24,CD,1713546772
387,urengoy,65.9667,78.3667,-0.51,93,89,14.18,RU,1713546775
388,jinxiang,27.4327,120.6062,65.52,91,100,7.96,CN,1713546778
389,minas de marcona,-15.2119,-75.1103,73.38,50,97,8.57,PE,1713546780
390,mugia,43.1041,-9.2179,66.9,73,0,8.9,ES,1713546783
391,as sulaymaniyah,35.5611,45.4375,61.23,67,0,6.91,IQ,1713546786
392,monrovia,6.3005,-10.7969,89.37,70,64,9.44,LR,1713546788
393,sorel-tracy,46.0334,-73.1159,57.22,66,100,12.26,CA,1713546505
394,sinan,34.8262,126.1086,56.89,77,100,8.23,KR,1713546794
395,san julian,21.0167,-102.1667,80.71,14,0,0.78,MX,1713546797
396,selfoss,63.9331,-20.9971,34.05,99,100,13.89,IS,1713546799
397,la'ie,21.6477,-157.9253,73.36,86,65,8.99,US,1713546802
398,ar ruways,24.1103,52.7306,79.68,51,0,7.85,AE,1713546805
399,mermoz boabab,14.7065,-17.4758,95.56,79,8,17.29,SN,1713546807
400,retreat,38.8245,-85.8533,59.74,71,99,5.01,US,1713546810
401,san pedro,14.35,121.0167,83.43,73,40,6.91,PH,1713546813
402,remire-montjoly,4.9167,-52.2667,87.84,70,75,16.11,GF,1713546724
403,cedeira,43.6797,-8.0209,72.99,70,0,26.4,ES,1713546818
404,essaouira,31.5125,-9.77,65.44,77,100,7.94,MA,1713546681
405,mhamid,29.82,-5.72,92.98,8,79,10.58,MA,1713546824
406,gummi,12.1436,5.1081,107.91,10,47,3.33,NG,1713546826
407,villa gesell,-37.2639,-56.973,77.05,59,62,22.48,AR,1713546740
408,smithers,54.7804,-127.1743,46.36,36,16,4.21,CA,1713546832
409,craig,40.5153,-107.5464,44.55,42,40,0.0,US,1713546566
410,port macquarie,-31.4333,152.9167,60.89,91,50,12.24,AU,1713546700
411,pyapon,16.2833,95.6833,81.54,74,2,10.11,MM,1713546840
412,launceston,-41.45,147.1667,46.15,87,86,1.14,AU,1713546842
413,tionk essil,12.7856,-16.5217,103.05,12,4,12.82,SN,1713546845
414,minzhu,43.7286,127.3447,43.65,33,100,3.8,CN,1713546848
415,katabu,-4.9333,122.5167,75.87,93,95,1.86,ID,1713546851
416,shimoda,34.6667,138.95,55.11,60,26,4.34,JP,1713546853
417,kendal,54.3268,-2.7476,51.69,73,80,11.5,GB,1713546856
418,canutama,-6.5339,-64.3831,76.8,95,100,1.1,BR,1713546859
419,tilcara,-23.5776,-65.3509,69.17,22,1,2.21,AR,1713546864
420,vorkuta,67.5,64.0,-7.89,91,71,8.01,RU,1713546867
421,homer,59.6425,-151.5483,44.49,69,100,14.97,US,1713546869
422,paita,-5.0892,-81.1144,76.28,69,42,10.51,PE,1713546872
423,weno,7.4515,151.8468,80.55,89,100,8.05,FM,1713546874
424,labrador city,52.9463,-66.9114,42.62,60,82,11.59,CA,1713546877
425,anamur,36.0751,32.8369,63.68,81,4,10.83,TR,1713546880
426,havre,49.5833,0.3333,52.34,87,75,20.71,FR,1713546882
427,lazaro cardenas,17.9583,-102.2,83.23,50,0,7.0,MX,1713546885
428,guerrero negro,27.9769,-114.0611,64.17,68,58,14.88,MX,1713546862
429,constitucion,-35.3333,-72.4167,64.6,59,100,11.77,CL,1713546891
430,loreto,22.2667,-101.9667,78.82,27,0,5.12,MX,1713546893
431,la sarre,48.8002,-79.1996,40.12,96,100,10.42,CA,1713546846
432,argo,37.6333,22.7333,57.16,84,80,1.57,GR,1713546899
433,monticello,45.3055,-93.7941,36.79,64,100,13.8,US,1713546668
434,fada,9.5667,8.3,97.99,17,80,2.62,NG,1713546904
435,kaohsiung,22.6163,120.3133,81.03,85,53,7.99,TW,1713546907
436,prince albert,53.2001,-105.7677,26.83,69,44,12.33,CA,1713546910
437,soe,-9.8607,124.284,66.16,96,100,3.69,ID,1713546915
438,chernyshevskiy,63.0128,112.4714,23.85,95,92,6.51,RU,1713546918
439,mbanza-ngungu,-5.25,14.8667,70.07,94,100,3.94,CD,1713546920
440,shitanjing,39.2342,106.3439,48.65,61,44,4.92,CN,1713546923
441,al kharijah,25.4514,30.5464,82.69,19,0,11.07,EG,1713546926
442,hun,29.1268,15.9477,73.62,47,10,31.45,LY,1713546928
443,morehead city,34.7229,-76.726,73.99,69,75,13.8,US,1713546931
444,springs,-26.25,28.4,69.26,64,41,5.28,ZA,1713546934
445,charles city,43.0664,-92.6724,46.8,46,0,29.93,US,1713546937
446,togur,58.3631,82.8265,31.14,73,92,14.0,RU,1713546939
447,acarau,-2.8856,-40.12,84.38,77,91,10.33,BR,1713546942
448,es castell,39.8795,4.2854,63.28,34,0,6.91,ES,1713546945
449,sucre,-19.0333,-65.2627,67.84,49,29,7.78,BO,1713546732
450,lundazi,-12.2929,33.1782,66.29,92,89,5.79,ZM,1713546950
451,alagoinhas,-12.1356,-38.4192,88.65,47,20,8.28,BR,1713546953
452,varena,54.2167,24.5667,42.31,65,98,4.97,LT,1713546955
453,kailua-kona,19.6406,-155.9956,79.59,79,20,0.0,US,1713546791
454,mentone,43.7765,7.5044,64.42,64,12,7.78,FR,1713546961
455,lompoc,34.6391,-120.4579,56.84,85,100,4.61,US,1713546962
456,east ballina,-28.8667,153.5833,58.8,89,12,10.45,AU,1713546966
457,nadi,-17.8,177.4167,75.92,91,100,4.12,FJ,1713546827
458,linares,-35.85,-71.6,65.1,48,100,8.43,CL,1713546767
459,upata,8.0086,-62.3989,81.19,57,89,3.15,VE,1713546974
460,nizhneangarsk,55.7833,109.55,25.0,77,1,3.0,RU,1713546977
461,sarupathar,26.1984,93.8094,71.26,80,48,4.12,IN,1713546980
462,novyy urgal,51.0736,132.5642,35.02,99,100,4.18,RU,1713546983
463,singaraja,-8.112,115.0882,80.51,85,69,3.27,ID,1713546985
464,colares,38.7992,-9.4469,68.99,75,75,14.0,PT,1713546988
465,mazamari,-11.3258,-74.5308,89.85,45,62,1.77,PE,1713546992
466,harper,4.375,-7.7169,86.56,71,50,9.13,LR,1713546995
467,muisne,0.6,-80.0333,80.69,82,100,2.04,EC,1713546998
468,isheyevka,54.4167,48.2667,69.31,59,84,13.42,RU,1713547000
469,alice springs,-23.7,133.8833,49.55,62,0,0.0,AU,1713547003
470,cicero dantas,-10.6,-38.3833,85.73,51,54,8.37,BR,1713547006
471,okhotsk,59.3833,143.3,31.23,95,100,5.61,RU,1713547008
472,piti village,13.4626,144.6933,82.45,86,0,8.05,GU,1713547012
473,suez,29.9737,32.5263,74.8,42,0,14.25,EG,1713547014
474,pathein,16.7833,94.7333,81.09,79,2,8.55,MM,1713547017
475,ariguani,10.25,-74.0,84.38,69,97,11.48,CO,1713547020
476,micheweni,-4.9667,39.8333,79.93,86,100,17.74,TZ,1713547022
477,villanueva de cordoba,38.3228,-4.6287,66.7,61,95,3.36,ES,1713547025
478,adre,13.4667,22.2,93.69,7,42,9.62,TD,1713547027
479,puerto baquerizo moreno,-0.9,-89.6,76.93,84,89,7.16,EC,1713547030
480,tazacorte,28.629,-17.9293,72.57,68,75,8.05,ES,1713547033
481,jiazi,22.8779,116.067,79.14,75,54,10.83,CN,1713547035
482,broome,42.2506,-75.833,52.7,84,100,11.5,US,1713547038
483,pacific grove,36.6177,-121.9166,57.42,80,100,4.0,US,1713546744
484,road town,18.4167,-64.6167,86.04,66,20,5.75,VG,1713546925
485,bandar-e genaveh,29.5791,50.517,77.74,62,0,5.91,IR,1713547046
486,usol'ye-sibirskoye,52.7519,103.6453,39.16,55,97,9.08,RU,1713547048
487,boa vista,2.8197,-60.6733,82.38,69,75,5.75,BR,1713546778
488,tralee,52.2704,-9.7026,53.85,82,75,9.22,IE,1713547056
489,ingeniero jacobacci,-41.3427,-69.5448,52.48,37,0,46.46,AR,1713547059
490,kiunga,-6.1219,141.2906,75.72,98,100,3.15,PG,1713547062
491,mejit,10.2753,170.8646,81.05,81,16,21.79,MH,1713547064
492,maralal,1.0968,36.698,66.9,74,100,6.29,KE,1713547067
493,yelizovo,53.1873,158.3805,36.1,92,95,1.01,RU,1713547070
494,buinsk,54.95,48.2833,63.48,65,79,12.17,RU,1713546976
495,lensk,60.7253,114.9278,29.16,96,74,6.64,RU,1713546890
496,coyhaique,-45.5752,-72.0662,48.15,66,75,8.05,CL,1713546928
497,dapa,9.7594,126.0531,79.86,79,57,5.93,PH,1713547080
498,nyurba,63.2842,118.3319,30.24,95,96,6.51,RU,1713547083
499,callao,-12.0667,-77.15,71.89,78,20,12.66,PE,1713547086
500,fomboni,-12.28,43.7425,83.53,75,94,12.44,KM,1713547089
501,el granada,37.5027,-122.4694,62.17,82,100,4.61,US,1713547091
502,kwang binh,17.4833,106.6,81.81,67,42,7.92,VN,1713547094
503,greytown,-29.0642,30.5928,61.32,82,18,1.14,ZA,1713547097
504,sibolga,1.7427,98.7792,79.07,89,99,2.55,ID,1713547100
505,baihe,22.15,107.2333,81.1,60,67,6.49,CN,1713547102
506,yuzhno-kurilsk,44.0306,145.8556,36.37,97,100,25.23,RU,1713547105
507,kutum,14.2,24.6667,88.57,9,89,8.08,SD,1713547108
508,nabire,-3.3667,135.4833,74.79,94,100,3.13,ID,1713547110
509,bako,5.7833,36.5667,67.24,80,96,5.28,ET,1713547113
510,askoy,60.4092,5.226,43.95,93,75,8.05,NO,1713547116
511,rawala kot,33.8578,73.7604,50.36,88,100,9.19,PK,1713547118
512,oranjemund,-28.55,16.4333,62.47,80,19,4.34,NA,1713547121
513,severo-yeniseyskiy,60.3725,93.0408,37.58,88,100,11.01,RU,1713547124
514,sharlyk,52.9167,54.75,67.78,54,0,8.97,RU,1713547126
515,union,40.6334,-74.2663,59.29,72,75,10.36,US,1713547068
516,amga,60.8953,131.9608,32.58,90,100,5.3,RU,1713547135
517,guanica,17.9716,-66.908,87.04,71,8,12.3,PR,1713547137
518,pasni,25.2631,63.471,78.57,74,0,18.68,PK,1713547141
519,ouesso,1.6136,16.0517,76.1,83,100,2.1,CG,1713547143
520,muroto-misakicho,33.2833,134.15,65.68,59,79,5.12,JP,1713547146
521,taoudenni,22.6783,-3.9836,102.36,5,14,7.0,ML,1713547148
522,urangan,-25.3,152.9,70.2,95,85,8.99,AU,1713547151
523,mora,11.0461,14.1401,102.02,10,100,4.25,CM,1713547154
524,porbandar,21.6422,69.6093,80.37,68,5,10.76,IN,1713547156
525,tuban,-6.8976,112.0649,79.03,91,100,5.14,ID,1713547159
526,umluj,25.0213,37.2685,80.17,57,0,7.45,SA,1713547162
527,alagir,43.0422,44.2222,57.74,67,89,1.79,RU,1713547165
528,kayes,14.0,-11.0,109.71,5,46,2.3,ML,1713547167
529,mount gambier,-37.8333,140.7667,47.93,89,3,3.47,AU,1713547170
530,tsiombe,-25.3,45.4833,70.34,75,57,5.03,MG,1713547173
531,bardai,11.65,7.2333,101.05,8,33,7.25,NG,1713547176
532,ad dabbah,18.05,30.95,96.24,8,2,8.61,SD,1713547178
533,loikaw,19.6742,97.2094,77.38,54,0,9.66,MM,1713547181
534,margate,51.3813,1.3862,51.91,57,48,13.0,GB,1713547150
535,tagiura,32.8817,13.3506,61.3,57,70,16.15,LY,1713547186
536,nicoya,10.1483,-85.452,96.49,27,100,5.82,CR,1713547189
537,khanty-mansiysk,61.0042,69.0019,28.51,54,0,8.95,RU,1713547194
538,kievka,50.2619,71.5514,63.23,63,4,9.08,KZ,1713547197
539,guilin,25.2819,110.2864,71.71,97,100,4.88,CN,1713547199
540,namdrik,5.5994,168.1028,82.54,82,89,18.25,MH,1713547202
541,baile herculane,44.8797,22.4125,47.82,59,53,5.97,RO,1713547205
542,choyr,46.3611,108.3611,47.23,29,78,15.97,MN,1713547207
543,benghazi,32.1167,20.0667,63.86,71,63,22.46,LY,1713546996
544,san clemente del tuyu,-36.3569,-56.7235,77.99,69,86,17.78,AR,1713547213
545,ashland,40.8167,-82.2665,55.4,91,100,12.8,US,1713546965
546,nehe,48.4833,124.8333,42.67,28,100,7.74,CN,1713547218
547,arawa,-6.2132,155.5367,77.94,92,57,1.34,PG,1713547226
548,yoko,5.5333,12.3167,73.89,81,100,4.47,CM,1713547229
549,port moresby,-9.4431,147.1797,76.84,92,100,3.74,PG,1713547231
550,morden,49.1919,-98.1014,30.04,63,98,20.98,CA,1713547234
551,ancud,-41.8697,-73.8203,52.2,62,92,8.79,CL,1713547237
552,betare oya,5.6,14.0833,75.07,84,99,7.07,CM,1713547240
553,bubaque,11.2833,-15.8333,78.48,73,64,20.98,GW,1713547118
554,changping,40.2186,116.2197,58.64,54,100,8.21,CN,1713547245
555,lerwick,60.1545,-1.1494,39.2,54,100,27.29,GB,1713547248
556,santo antonio,-6.3106,-35.4789,87.1,64,100,7.45,BR,1713547251
557,lebu,-37.6167,-73.65,58.84,67,100,8.03,CL,1713547026
558,marietta,33.9526,-84.5499,82.49,74,75,8.05,US,1713547237
559,perm,58.0174,56.2855,63.86,48,0,8.95,RU,1713547258
560,yichun,47.7,128.9,32.92,74,7,2.64,CN,1713547261
561,tahla,34.0485,-4.428,76.95,34,100,9.17,MA,1713547263
562,choibalsan,48.0667,114.5,41.68,25,99,16.2,MN,1713547266
